{"type":"FeatureCollection","features":[{"type":"Feature","properties":{"Lieu":"Collège J. VALLES","Adresse":"3 Rue du Puits Thibaud","Code postal":42000,"Ville":"SAINT ETIENNE","Distance":2},"geometry":{"type":"Point","coordinates":[4.4021481,45.4460502]}},{"type":"Feature","properties":{"Lieu":"Parc Routier","Adresse":"1 Rue Pierre Démurger","Code postal":42300,"Ville":"ROANNE","Distance":2},"geometry":{"type":"Point","coordinates":[4.095999,46.0547707]}},{"type":"Feature","properties":{"Lieu":"Collège  M. SEGUIN ","Adresse":"125 Bld Vivaldi","Code postal":42000,"Ville":"SAINT ETIENNE","Distance":2},"geometry":{"type":"Point","coordinates":[4.4,45.4333]}},{"type":"Feature","properties":{"Lieu":"Collège  LE PORTAIL ROUGE ","Adresse":"16 rue portail rouge","Code postal":42000,"Ville":"SAINT ETIENNE","Distance":2},"geometry":{"type":"Point","coordinates":[4.4091143,45.4153112]}},{"type":"Feature","properties":{"Lieu":"Collège BOIS DE LA RIVE","Adresse":"13 rue du Président Kennedy","Code postal":42240,"Ville":"UNIEUX","Distance":10},"geometry":{"type":"Point","coordinates":[4.2595538,45.399942]}},{"type":"Feature","properties":{"Lieu":"Parc Routier","Adresse":"Zone d'Activité Ratarieux","Code postal":42390,"Ville":"VILLARS","Distance":10},"geometry":{"type":"Point","coordinates":[4.3545,45.4712]}},{"type":"Feature","properties":{"Lieu":"Collège P. et M. CURIE","Adresse":"4 Rue G. Clémenceau","Code postal":42350,"Ville":"LA TALAUDIERE","Distance":10},"geometry":{"type":"Point","coordinates":[4.4317,45.4809]}},{"type":"Feature","properties":{"Lieu":"Collège  N. CONTE","Adresse":"rue du Collège N. Conté","Code postal":42630,"Ville":"REGNY","Distance":10},"geometry":{"type":"Point","coordinates":[4.2862,46.0019]}},{"type":"Feature","properties":{"Lieu":"Collège F. TRUFFAUT","Adresse":"22 Avenue du Forez","Code postal":42800,"Ville":"RIVE DE GIER","Distance":2},"geometry":{"type":"Point","coordinates":[4.5996687,45.5159802]}},{"type":"Feature","properties":{"Lieu":"Collège TERRENOIRE  A. BRIAND","Adresse":"61 rue L. Destre","Code postal":42000,"Ville":"SAINT ETIENNE","Distance":2},"geometry":{"type":"Point","coordinates":[4.4,45.4333]}},{"type":"Feature","properties":{"Lieu":"Collège Michel SERVET","Adresse":"Rue Riottier","Code postal":42190,"Ville":"CHARLIEU","Distance":10},"geometry":{"type":"Point","coordinates":[4.1772786,46.1588531]}},{"type":"Feature","properties":{"Lieu":"Collège P. MASSON","Adresse":"12 Place Jules Ferry","Code postal":42260,"Ville":"SAINT GERMAIN LAVAL","Distance":10},"geometry":{"type":"Point","coordinates":[4.0136616,45.8280152]}},{"type":"Feature","properties":{"Lieu":"Collège PUITS  LA LOIRE ","Adresse":"17 Rue Antoine Roche","Code postal":42021,"Ville":"SAINT ETIENNE","Distance":2},"geometry":{"type":"Point","coordinates":[4.3721109,45.4444786]}},{"type":"Feature","properties":{"Lieu":"Collège  J. DASTE ","Adresse":"68 rue Jean Parot","Code postal":42000,"Ville":"SAINT ETIENNE","Distance":2},"geometry":{"type":"Point","coordinates":[4.4215026,45.4286905]}},{"type":"Feature","properties":{"Lieu":"Collège Jacques BREL","Adresse":"Rue Joseph Gillet","Code postal":42140,"Ville":"CHAZELLES SUR LYON","Distance":10},"geometry":{"type":"Point","coordinates":[4.3896499,45.6336858]}},{"type":"Feature","properties":{"Lieu":"Collège  LES ETINES","Adresse":"4 Allée des Etines","Code postal":42120,"Ville":"LE COTEAU","Distance":10},"geometry":{"type":"Point","coordinates":[4.0931775,46.025484]}},{"type":"Feature","properties":{"Lieu":"CDEE","Adresse":"Les Peyrardes","Code postal":42170,"Ville":"SAINT JUST SAINT RAMBERT","Distance":2},"geometry":{"type":"Point","coordinates":[4.2414,45.4997]}},{"type":"Feature","properties":{"Lieu":"Collège  J. PREVERT ","Adresse":"23 rue Racine","Code postal":42160,"Ville":"ANDREZIEUX BOUTHEON","Distance":2},"geometry":{"type":"Point","coordinates":[4.2665147,45.5287719]}},{"type":"Feature","properties":{"Lieu":"Collège  Charles Exbrayat","Adresse":"41 Rue du Dorlay","Code postal":42320,"Ville":"LA GRAND CROIX","Distance":10},"geometry":{"type":"Point","coordinates":[4.5729531,45.4982088]}},{"type":"Feature","properties":{"Lieu":"Collège Le PALAIS","Adresse":"3 Allée du Château","Code postal":42110,"Ville":"FEURS","Distance":2},"geometry":{"type":"Point","coordinates":[4.223015,45.751692]}},{"type":"Feature","properties":{"Lieu":"Collège J. VALLES","Adresse":"7 Rue Robespierre","Code postal":42150,"Ville":"LA RICAMARIE","Distance":10},"geometry":{"type":"Point","coordinates":[4.3680854,45.3996635]}},{"type":"Feature","properties":{"Lieu":"Collège  MASSENET FOURNEYRON ","Adresse":"Rue Thomas","Code postal":42500,"Ville":"LE CHAMBON FEUGEROLLES","Distance":10},"geometry":{"type":"Point","coordinates":[4.329351,45.3977183]}},{"type":"Feature","properties":{"Lieu":"Collège  L. ARAGON ","Adresse":"347 Route de Briennon","Code postal":42304,"Ville":"MABLY","Distance":10},"geometry":{"type":"Point","coordinates":[4.0771157,46.1061154]}},{"type":"Feature","properties":{"Lieu":"Collège R. SCHUMAN","Adresse":"10 Rue de l'Anzon","Code postal":42440,"Ville":"NOIRETABLE","Distance":10},"geometry":{"type":"Point","coordinates":[3.7607411,45.8116707]}},{"type":"Feature","properties":{"Lieu":"Collège La Côte ROANNAISE","Adresse":"Lieu-dit \"La Pran\"","Code postal":42370,"Ville":"RENAISON","Distance":10},"geometry":{"type":"Point","coordinates":[3.8465,46.0752]}},{"type":"Feature","properties":{"Lieu":"Collège A. SCHWEITZER","Adresse":"150 Rue Albrecth Ifflander","Code postal":42150,"Ville":"RIORGES","Distance":10},"geometry":{"type":"Point","coordinates":[4.312,45.4168]}},{"type":"Feature","properties":{"Lieu":"Collège J. ROSTAND","Adresse":"Boulevard de la Grande Terre","Code postal":42400,"Ville":"SAINT CHAMOND","Distance":2},"geometry":{"type":"Point","coordinates":[4.5356091,45.4801058]}},{"type":"Feature","properties":{"Lieu":"Collège Michel  MONTAIGNE","Adresse":"177 Rue Claudius Roche","Code postal":42510,"Ville":"BALBIGNY","Distance":10},"geometry":{"type":"Point","coordinates":[4.1944367,45.8170258]}},{"type":"Feature","properties":{"Lieu":"Collège  LE PILAT","Adresse":"2 Allée de la Chaize","Code postal":42220,"Ville":"BOURG ARGENTAL","Distance":10},"geometry":{"type":"Point","coordinates":[4.5761637,45.3000086]}},{"type":"Feature","properties":{"Lieu":"Collège J.  LA FONTAINE","Adresse":"185 Rue L. Sampaix","Code postal":42300,"Ville":"ROANNE","Distance":2},"geometry":{"type":"Point","coordinates":[4.0333,46]}},{"type":"Feature","properties":{"Lieu":"Collège  L. GRUNER","Adresse":"2 Rue Marcel Paul","Code postal":42230,"Ville":"ROCHE LA MOLIERE","Distance":10},"geometry":{"type":"Point","coordinates":[4.3148973,45.4242171]}},{"type":"Feature","properties":{"Lieu":"CDEE","Adresse":0,"Code postal":42420,"Ville":"SAINT JUST EN CHEVALET","Distance":2},"geometry":{"type":"Point","coordinates":[3.8463118,45.9137971]}},{"type":"Feature","properties":{"Lieu":"Collège  A. FRANK","Adresse":"Rue Anne Franck","Code postal":42170,"Ville":"SAINT JUST SAINT RAMBERT","Distance":2},"geometry":{"type":"Point","coordinates":[4.2414,45.4997]}},{"type":"Feature","properties":{"Lieu":"Collège  Léonard  VINCI ","Adresse":"5 rue de l'Ancienne Poste","Code postal":42610,"Ville":"SAINT ROMAIN LE PUY","Distance":2},"geometry":{"type":"Point","coordinates":[4.1284452,45.5537456]}},{"type":"Feature","properties":{"Lieu":"Collège  J. ROMAINS ","Adresse":"25 route de Cuzieu","Code postal":42330,"Ville":"SAINT GALMIER","Distance":2},"geometry":{"type":"Point","coordinates":[4.3063258,45.5958804]}},{"type":"Feature","properties":{"Lieu":"Paul Petit","Adresse":"22 rue Paul Petit","Code postal":42000,"Ville":"SAINT ETIENNE","Distance":2},"geometry":{"type":"Point","coordinates":[4.4019253,45.4370622]}},{"type":"Feature","properties":{"Lieu":"Local Social","Adresse":"4 Rue Robert Cancet","Code postal":42000,"Ville":"SAINT ETIENNE","Distance":2},"geometry":{"type":"Point","coordinates":[4.4012729,45.438407]}},{"type":"Feature","properties":{"Lieu":"Collège  GAMBETTA","Adresse":"34 bis rue Michelet","Code postal":42002,"Ville":"SAINT ETIENNE","Distance":2},"geometry":{"type":"Point","coordinates":[4.3893827,45.4340845]}},{"type":"Feature","properties":{"Lieu":"Collège J. PAPON","Adresse":"Lieu-dit \"Canillat\"","Code postal":42310,"Ville":"LA PACAUDIERE","Distance":10},"geometry":{"type":"Point","coordinates":[3.9437,46.1894]}},{"type":"Feature","properties":{"Lieu":"Collège  E. FALABREGUE ","Adresse":"Rue de la Chatelaine","Code postal":42380,"Ville":"SAINT BONNET LE CHATEAU","Distance":10},"geometry":{"type":"Point","coordinates":[4.0676874,45.422146]}}]}